[
	{"user_id": 1, "customer_name": "Shruti", "latitude": "29.955883", "longitude": "76.871493"},
	{"user_id": 2, "customer_name": "Aarti", "latitude": "29.383112", "longitude": "76.956005"},
	{"user_id": 3, "customer_name": "Abhishek", "latitude": "28.673944", "longitude": "77.181575"},
	{"user_id": 4, "customer_name": "Alok", "latitude": "30.791645", "longitude": "76.911689"},
	{"user_id": 5, "customer_name": "Aman", "latitude": "30.748240", "longitude": "76.631920"},
	{"user_id": 6, "customer_name": "Amar", "latitude": "31.075950", "longitude": "77.167226"},
	{"user_id": 7, "customer_name": "Amit", "latitude": "30.996610", "longitude": "75.859308"},
	{"user_id": 8, "customer_name": "Anil", "latitude": "31.518085", "longitude": "75.848710"},
	{"user_id": 9, "customer_name": "Anish", "latitude": "30.313765", "longitude": "76.416011"},
	{"user_id": 10, "customer_name": "Ankit", "latitude": "30.407987", "longitude": "76.757837"},
	{"user_id": 11, "customer_name": "Anuj", "latitude": "30.065119", "longitude": "77.299408"},
	{"user_id": 12, "customer_name": "Anupam", "latitude": "29.926498", "longitude": "77.516474"},
	{"user_id": 13, "customer_name": "Arvinder", "latitude": "29.955883", "longitude": "76.871493"},
	{"user_id": 14, "customer_name": "Ashish", "latitude": "30.791645", "longitude": "76.911689"},
	{"user_id": 15, "customer_name": "Ashutosh", "latitude": "30.748240", "longitude": "76.631920"},
	{"user_id": 16, "customer_name": "Atul", "latitude": "30.791645", "longitude": "76.911689"},
	{"user_id": 17, "customer_name": "Azhar", "latitude": "31.518085", "longitude": "75.848710"},
	{"user_id": 18, "customer_name": "Charanjit", "latitude": "29.383112", "longitude": "76.956005"},
	{"user_id": 19, "customer_name": "Devendra", "latitude": "30.407987", "longitude": "76.757837"},
	{"user_id": 20, "customer_name": "Dharmendra", "latitude": "29.955883", "longitude": "76.871493"},
	{"user_id": 21, "customer_name": "Gagan", "latitude": "30.791645", "longitude": "76.911689"},
	{"user_id": 22, "customer_name": "Garima", "latitude": "28.673944", "longitude": "77.181575"},
	{"user_id": 23, "customer_name": "Gopi", "latitude": "31.518085", "longitude": "75.848710"},
	{"user_id": 24, "customer_name": "Gurpreet", "latitude": "29.926498", "longitude": "77.516474"},
	{"user_id": 25, "customer_name": "Harendra", "latitude": "30.748240", "longitude": "76.631920"},
	{"user_id": 26, "customer_name": "Harish", "latitude": "29.926498", "longitude": "77.516474"},
	{"user_id": 27, "customer_name": "Himanshu", "latitude": "31.518085", "longitude": "75.848710"},
	{"user_id": 28, "customer_name": "Harminder","latitude": "29.383112", "longitude": "76.956005"},
	{"user_id": 29, "customer_name": "Jai", "latitude": "30.407987", "longitude": "76.757837"},
	{"user_id": 30, "customer_name": "Jatin", "latitude": "30.996610", "longitude": "75.859308"},
	{"user_id": 31, "customer_name": "Kanwar", "latitude": "30.407987", "longitude": "76.757837"},
	{"user_id": 32, "customer_name": "Kiran", "latitude": "31.518085", "longitude": "75.848710"},
	{"user_id": 33, "customer_name": "Kulbir", "latitude": "31.075950", "longitude": "77.167226"},
	{"user_id": 34, "customer_name": "Mahendra", "latitude": "30.791645", "longitude": "76.911689"},
	{"user_id": 35, "customer_name": "Mahesh", "latitude": "29.383112", "longitude": "76.956005"},
	{"user_id": 36, "customer_name": "Minni", "latitude": "29.955883", "longitude": "76.871493"},
	{"user_id": 37, "customer_name": "Mohammad", "latitude": "30.791645", "longitude": "76.911689"},
	{"user_id": 38, "customer_name": "Mohit", "latitude": "28.673944", "longitude": "77.181575"},
	{"user_id": 39, "customer_name": "Musheer", "latitude": "31.518085", "longitude": "75.848710"},
	{"user_id": 40, "customer_name": "Nagendra", "latitude": "29.926498", "longitude": "77.516474"},
	{"user_id": 41, "customer_name": "Navjot", "latitude": "30.748240", "longitude": "76.631920"},
	{"user_id": 42, "customer_name": "Parul", "latitude": "29.926498", "longitude": "77.516474"},
	{"user_id": 42, "customer_name": "Parvind", "latitude": "30.407987", "longitude": "76.757837"},
	{"user_id": 44, "customer_name": "Pawan", "latitude": "30.996610", "longitude": "75.859308"},
	{"user_id": 45, "customer_name": "Piyush", "latitude": "29.955883", "longitude": "76.871493"},
	{"user_id": 46, "customer_name": "Pradeep", "latitude": "30.791645", "longitude": "76.911689"},
	{"user_id": 47, "customer_name": "Punit", "latitude": "28.673944", "longitude": "77.181575"},
	{"user_id": 48, "customer_name": "Rajesh", "latitude": "31.518085", "longitude": "75.848710"},
	{"user_id": 49, "customer_name": "Rakesh", "latitude": "29.926498", "longitude": "77.516474"},
	{"user_id": 50, "customer_name": "Ratish", "latitude": "30.748240", "longitude": "76.631920"}
]
